[{"schools_sindh_province":{"title":"Sindh","allSelected":true,"districtSelected":0,"districtIndex":0,"districtTalukasList":0,"districtTalukaTblList":0,"talukaDistrict":0,"taluka":0,"talukaIndex":0,"tableName":"schools_sindh_province","lon":68.4,"lat":27.5,"zoom":7,"schools":13043,"boys":706618,"girls":469683,"totalStudents":1176301,"pointRadius":0,"pointRadiusSmall":0}},{"schools_dadu_district":{"title":"Dadu","allSelected":0,"districtSelected":true,"districtIndex":1,"districtTalukasList":["Dadu","Johi","Khairpur Nathan Shah","Mehar"],"districtTalukaTblList":["schools_dadu","schools_johi","schools_khairpur_nathan_shah","schools_mehar"],"talukaDistrict":"Dadu","taluka":0,"talukaIndex":0,"tableName":"schools_dadu_district","lon":67.77,"lat":26.72,"zoom":9,"schools":2105,"boys":103603,"girls":75811,"totalStudents":179414,"pointRadius":61}},{"schools_dadu":{"title":"Dadu","allSelected":0,"districtSelected":0,"districtIndex":1,"districtTalukasList":0,"districtTalukaTblList":0,"talukaDistrict":"Dadu","taluka":true,"talukaIndex":1,"tableName":"schools_dadu","lon":67.76,"lat":26.72,"zoom":10,"schools":644,"boys":31114,"girls":24854,"totalStudents":55968,"pointRadius":27}},{"schools_johi":{"title":"Johi","allSelected":0,"districtSelected":0,"districtIndex":1,"districtTalukasList":0,"districtTalukaTblList":0,"talukaDistrict":"Dadu","taluka":true,"talukaIndex":2,"tableName":"schools_johi","lon":67.61,"lat":26.69,"zoom":10,"schools":500,"boys":17076,"girls":11896,"totalStudents":28972,"pointRadius":22}},{"schools_khairpur_nathan_shah":{"title":"Khairpur Nathan Shah","allSelected":0,"districtIndex":1,"districtSelected":0,"districtTalukasList":0,"districtTalukaTblList":0,"talukaDistrict":"Dadu","taluka":true,"talukaIndex":3,"tableName":"schools_khairpur_nathan_shah","lon":67.73,"lat":27.09,"zoom":10,"schools":508,"boys":29610,"girls":20632,"totalStudents":50242,"pointRadius":31}},{"schools_mehar":{"title":"Mehar","allSelected":0,"districtIndex":1,"districtSelected":0,"districtTalukasList":0,"districtTalukaTblList":0,"talukaDistrict":"Dadu","taluka":true,"talukaIndex":4,"tableName":"schools_mehar","lon":67.82,"lat":27.17,"zoom":10,"schools":453,"boys":25803,"girls":18429,"totalStudents":44232,"pointRadius":29}},{"schools_jacobabad_district":{"title":"Jacobabad","allSelected":0,"districtSelected":true,"districtIndex":2,"districtTalukasList":["Ghari Khairo","Jacobabad","Thull"],"districtTalukaTblList":["schools_ghari_khairo","schools_jacobabad","schools_thull"],"talukaDistrict":"Jacobabad","taluka":0,"talukaIndex":0,"tableName":"schools_jacobabad_district","lon":68.44,"lat":28.27,"zoom":9,"schools":1348,"boys":86085,"girls":63745,"totalStudents":149830,"pointRadius":61}},{"schools_ghari_khairo":{"title":"Ghari Khairo","allSelected":0,"districtSelected":0,"districtIndex":2,"districtTalukasList":0,"districtTalukaTblList":0,"talukaDistrict":"Jacobabad","taluka":true,"talukaIndex":1,"tableName":"schools_ghari_khairo","lon":67.97,"lat":28.05,"zoom":10,"schools":342,"boys":22256,"girls":15995,"totalStudents":38251,"pointRadius":27}},{"schools_jacobabad":{"title":"Jacobabad","allSelected":0,"districtSelected":0,"districtIndex":2,"districtTalukasList":0,"districtTalukaTblList":0,"talukaDistrict":"Jacobabad","taluka":true,"talukaIndex":2,"tableName":"schools_jacobabad","lon":68.45,"lat":28.27,"zoom":10,"schools":329,"boys":26652,"girls":23119,"totalStudents":49771,"pointRadius":22}},{"schools_thull":{"title":"Thull","allSelected":0,"districtIndex":2,"districtSelected":0,"districtTalukasList":0,"districtTalukaTblList":0,"talukaDistrict":"Dadu","taluka":true,"talukaIndex":3,"tableName":"schools_thull","lon":68.77,"lat":28.24,"zoom":10,"schools":677,"boys":37177,"girls":24631,"totalStudents":61808,"pointRadius":31}},{"schools_karachi_district":{"title":"Karachi","allSelected":0,"districtSelected":true,"districtIndex":3,"districtTalukasList":["Bin Qasim Town","Gadap Town","Keamari Town","Lyari Town","Orangi Town"],"districtTalukaTblList":["schools_bin_qasim_town","schools_gadap_town","schools_keamari_town","schools_lyari_town","schools_orangi_town"],"talukaDistrict":"Karachi","taluka":0,"talukaIndex":0,"tableName":"schools_karachi_district","lon":67.02,"lat":24.89,"zoom":9,"schools":900,"boys":48050,"girls":46438,"totalStudents":94488,"pointRadius":61}},{"schools_bin_qasim_town":{"title":"Bin Qasim Town","allSelected":0,"districtSelected":0,"districtIndex":3,"districtTalukasList":0,"districtTalukaTblList":0,"talukaDistrict":"Karachi","taluka":true,"talukaIndex":1,"tableName":"schools_bin_qasim_town","lon":67.29,"lat":24.89,"zoom":10,"schools":161,"boys":8739,"girls":7621,"totalStudents":16360,"pointRadius":27}},{"schools_gadap_town":{"title":"Gadap Town","allSelected":0,"districtSelected":0,"districtIndex":3,"districtTalukasList":0,"districtTalukaTblList":0,"talukaDistrict":"Karachi","taluka":true,"talukaIndex":2,"tableName":"schools_gadap_town","lon":67.02,"lat":25.07,"zoom":10,"schools":340,"boys":16043,"girls":11927,"totalStudents":27970,"pointRadius":22}},{"schools_keamari_town":{"title":"Keamari Town","allSelected":0,"districtIndex":3,"districtSelected":0,"districtTalukasList":0,"districtTalukaTblList":0,"talukaDistrict":"Karachi","taluka":true,"talukaIndex":3,"tableName":"schools_keamari_town","lon":66.98,"lat":24.82,"zoom":10,"schools":137,"boys":6904,"girls":6651,"totalStudents":13555,"pointRadius":31}},{"schools_lyari_town":{"title":"Lyari Town","allSelected":0,"districtIndex":3,"districtSelected":0,"districtTalukasList":0,"districtTalukaTblList":0,"talukaDistrict":"Karachi","taluka":true,"talukaIndex":4,"tableName":"schools_lyari_town","lon":66.99,"lat":24.87,"zoom":10,"schools":151,"boys":10083,"girls":8142,"totalStudents":18225,"pointRadius":31}},{"schools_orangi_town":{"title":"Orangi Town","allSelected":0,"districtIndex":3,"districtSelected":0,"districtTalukasList":0,"districtTalukaTblList":0,"talukaDistrict":"Karachi","taluka":true,"talukaIndex":5,"tableName":"schools_orangi_town","lon":66.96,"lat":24.95,"zoom":10,"schools":111,"boys":6281,"girls":12097,"totalStudents":18378,"pointRadius":31}},{"schools_kashmore_district":{"title":"Kashmore","allSelected":0,"districtSelected":true,"districtIndex":4,"districtTalukasList":["Kandh Kot","Kashmore","Tangwani"],"districtTalukaTblList":["schools_kandh_kot","schools_kashmore","schools_tangwani"],"talukaDistrict":"Kashmore","taluka":0,"talukaIndex":0,"tableName":"schools_kashmore_district","lon":69.57,"lat":28.43,"zoom":9,"schools":1355,"boys":73713,"girls":35340,"totalStudents":109053,"pointRadius":61}},{"schools_kandh_kot":{"title":"Kandh Kot","allSelected":0,"districtSelected":0,"districtIndex":4,"districtTalukasList":0,"districtTalukaTblList":0,"talukaDistrict":"Kashmore","taluka":true,"talukaIndex":1,"tableName":"schools_kandh_kot","lon":69.18,"lat":28.24,"zoom":10,"schools":271,"boys":21974,"girls":11476,"totalStudents":33450,"pointRadius":27}},{"schools_kashmore":{"title":"Kashmore","allSelected":0,"districtSelected":0,"districtIndex":4,"districtTalukasList":0,"districtTalukaTblList":0,"talukaDistrict":"Kashmore","taluka":true,"talukaIndex":2,"tableName":"schools_kashmore","lon":69.58,"lat":28.43,"zoom":10,"schools":555,"boys":25177,"girls":10823,"totalStudents":36000,"pointRadius":22}},{"schools_tangwani":{"title":"Tangwani Town","allSelected":0,"districtIndex":4,"districtSelected":0,"districtTalukasList":0,"districtTalukaTblList":0,"talukaDistrict":"Kashmore","taluka":true,"talukaIndex":3,"tableName":"schools_tangwani","lon":69,"lat":28.32,"zoom":10,"schools":529,"boys":26562,"girls":13041,"totalStudents":39603,"pointRadius":31}},{"schools_khairpur_district":{"title":"Khairpur","allSelected":0,"districtSelected":true,"districtIndex":5,"districtTalukasList":["Faiz Ganj","Gambat","Khairpur","Kingri","Kotdiji","Mirwah","Nara","Sobho Dero"],"districtTalukaTblList":["schools_faiz_ganj","schools_gambat","schools_khairpur","schools_kingri","schools_kotdiji","schools_mirwah","schools_nara","schools_sobho_dero"],"talukaDistrict":"Khairpur","taluka":0,"talukaIndex":0,"tableName":"schools_khairpur_district","lon":68.94,"lat":26.89,"zoom":9,"schools":3369,"boys":151661,"girls":95667,"totalStudents":247328,"pointRadius":61}},{"schools_faiz_ganj":{"title":"Faiz Ganj","allSelected":0,"districtIndex":5,"districtSelected":0,"districtTalukasList":0,"districtTalukaTblList":0,"talukaDistrict":"Khairpur","taluka":true,"talukaIndex":1,"tableName":"schools_faiz_ganj","lon":68.48,"lat":26.87,"zoom":10,"schools":492,"boys":16434,"girls":10415,"totalStudents":26849,"pointRadius":31}},{"schools_gambat":{"title":"Gambat","allSelected":0,"districtIndex":5,"districtSelected":0,"districtTalukasList":0,"districtTalukaTblList":0,"talukaDistrict":"Khairpur","taluka":true,"talukaIndex":2,"tableName":"schools_gambat","lon":68.52,"lat":27.35,"zoom":10,"schools":288,"boys":15781,"girls":8131,"totalStudents":23912,"pointRadius":31}},{"schools_khairpur":{"title":"Khairpur","allSelected":0,"districtIndex":5,"districtSelected":0,"districtTalukasList":0,"districtTalukaTblList":0,"talukaDistrict":"Khairpur","taluka":true,"talukaIndex":3,"tableName":"schools_khairpur","lon":68.74,"lat":27.52,"zoom":10,"schools":401,"boys":26151,"girls":17013,"totalStudents":43164,"pointRadius":31}},{"schools_kingri":{"title":"Kingri","allSelected":0,"districtIndex":5,"districtSelected":0,"districtTalukasList":0,"districtTalukaTblList":0,"talukaDistrict":"Khairpur","taluka":true,"talukaIndex":4,"tableName":"schools_kingri","lon":68.61,"lat":27.59,"zoom":10,"schools":342,"boys":21348,"girls":13859,"totalStudents":35207,"pointRadius":31}},{"schools_kotdiji":{"title":"Kotdiji","allSelected":0,"districtIndex":5,"districtSelected":0,"districtTalukasList":0,"districtTalukaTblList":0,"talukaDistrict":"Khairpur","taluka":true,"talukaIndex":5,"tableName":"schools_kotdiji","lon":68.7,"lat":27.33,"zoom":10,"schools":523,"boys":18867,"girls":11215,"totalStudents":30082,"pointRadius":31}},{"schools_mirwah":{"title":"Mirwah","allSelected":0,"districtIndex":5,"districtSelected":0,"districtTalukasList":0,"districtTalukaTblList":0,"talukaDistrict":"Khairpur","taluka":true,"talukaIndex":6,"tableName":"schools_mirwah","lon":68.6,"lat":27.06,"zoom":10,"schools":751,"boys":27799,"girls":19061,"totalStudents":46860,"pointRadius":31}},{"schools_nara":{"title":"Nara","allSelected":0,"districtIndex":5,"districtSelected":0,"districtTalukasList":0,"districtTalukaTblList":0,"talukaDistrict":"Khairpur","taluka":true,"talukaIndex":7,"tableName":"schools_nara","lon":68.97,"lat":27.09,"zoom":10,"schools":322,"boys":8690,"girls":5848,"totalStudents":14538,"pointRadius":31}},{"schools_sobho_dero":{"title":"Sobho dero","allSelected":0,"districtIndex":5,"districtSelected":0,"districtTalukasList":0,"districtTalukaTblList":0,"talukaDistrict":"Khairpur","taluka":true,"talukaIndex":8,"tableName":"schools_sobho_dero","lon":68.39,"lat":27.3,"zoom":10,"schools":250,"boys":16591,"girls":10125,"totalStudents":26716,"pointRadius":31}},{"schools_larkana_district":{"title":"Larkana","allSelected":0,"districtSelected":true,"districtIndex":6,"districtTalukasList":["Bakrani","Dokri","Larkana","Rato Dero"],"districtTalukaTblList":["schools_bakrani","schools_dokri","schools_larkana","schools_rato_dero"],"talukaDistrict":"Larkana","taluka":0,"talukaIndex":0,"tableName":"schools_larkana_district","lon":68.2,"lat":27.55,"zoom":9,"schools":1353,"boys":90154,"girls":49532,"totalStudents":139686,"pointRadius":61}},{"schools_bakrani":{"title":"Bakrani","allSelected":0,"districtIndex":6,"districtSelected":0,"districtTalukasList":0,"districtTalukaTblList":0,"talukaDistrict":"Larkana","taluka":true,"talukaIndex":1,"tableName":"schools_bakrani","lon":68.18,"lat":27.44,"zoom":10,"schools":332,"boys":17727,"girls":9840,"totalStudents":27567,"pointRadius":31}},{"schools_dokri":{"title":"Dokri","allSelected":0,"districtIndex":6,"districtSelected":0,"districtTalukasList":0,"districtTalukaTblList":0,"talukaDistrict":"Larkana","taluka":true,"talukaIndex":2,"tableName":"schools_dokri","lon":68.09,"lat":27.37,"zoom":10,"schools":221,"boys":14126,"girls":10723,"totalStudents":24849,"pointRadius":31}},{"schools_larkana":{"title":"Larkana","allSelected":0,"districtIndex":6,"districtSelected":0,"districtTalukasList":0,"districtTalukaTblList":0,"talukaDistrict":"Larkana","taluka":true,"talukaIndex":3,"tableName":"schools_larkana","lon":68.2,"lat":27.55,"zoom":10,"schools":439,"boys":32882,"girls":14643,"totalStudents":47525,"pointRadius":31}},{"schools_rato_dero":{"title":"Rato Dero","allSelected":0,"districtIndex":6,"districtSelected":0,"districtTalukasList":0,"districtTalukaTblList":0,"talukaDistrict":"Larkana","taluka":true,"talukaIndex":4,"tableName":"schools_rato_dero","lon":68.29,"lat":27.8,"zoom":10,"schools":361,"boys":25419,"girls":14326,"totalStudents":39745,"pointRadius":31}},{"schools_qambar_district":{"title":"Shahdadkot","allSelected":0,"districtSelected":true,"districtIndex":7,"districtTalukasList":["Kambar","Miro Khan","Nasir Abad","Qubo Saeed Khan","Shahdadkot","Sijawal Junejo","Warrah"],"districtTalukaTblList":["schools_kambar","schools_miro_khan","schools_nasir_abad","schools_qubo_saeed_khan","schools_shahdadkot","schools_sijawal_junejo","schools_warrah"],"talukaDistrict":"Shahdadkot","taluka":0,"talukaIndex":0,"tableName":"schools_qambar_district","lon":67.9,"lat":27.84,"zoom":9,"schools":1336,"boys":78634,"girls":52702,"totalStudents":131336,"pointRadius":61}},{"schools_kambar":{"title":"Kambar","allSelected":0,"districtIndex":7,"districtSelected":0,"districtTalukasList":0,"districtTalukaTblList":0,"talukaDistrict":"Shahdadkot","taluka":true,"talukaIndex":1,"tableName":"schools_kambar","lon":67.99,"lat":27.58,"zoom":10,"schools":362,"boys":21604,"girls":14659,"totalStudents":36263,"pointRadius":31}},{"schools_miro_khan":{"title":"Mrio Khan","allSelected":0,"districtIndex":7,"districtSelected":0,"districtTalukasList":0,"districtTalukaTblList":0,"talukaDistrict":"Shahdadkot","taluka":true,"talukaIndex":2,"tableName":"schools_miro_khan","lon":68.09,"lat":27.75,"zoom":10,"schools":178,"boys":10069,"girls":5374,"totalStudents":15443,"pointRadius":31}},{"schools_nasir_abad":{"title":"Nasir Abad","allSelected":0,"districtIndex":7,"districtSelected":0,"districtTalukasList":0,"districtTalukaTblList":0,"talukaDistrict":"Shahdadkot","taluka":true,"talukaIndex":3,"tableName":"schools_nasir_abad","lon":67.91,"lat":27.33,"zoom":10,"schools":156,"boys":8631,"girls":6011,"totalStudents":14642,"pointRadius":31}},{"schools_qubo_saeed_khan":{"title":"Qubo Saeed Khan","allSelected":0,"districtIndex":7,"districtSelected":0,"districtTalukasList":0,"districtTalukaTblList":0,"talukaDistrict":"Shahdadkot","taluka":true,"talukaIndex":4,"tableName":"schools_qubo_saeed_khan","lon":67.69,"lat":27.88,"zoom":10,"schools":71,"boys":2595,"girls":3374,"totalStudents":5969,"pointRadius":31}},{"schools_shahdadkot":{"title":"Shahdadkot","allSelected":0,"districtIndex":7,"districtSelected":0,"districtTalukasList":0,"districtTalukaTblList":0,"talukaDistrict":"Shahdadkot","taluka":true,"talukaIndex":5,"tableName":"schools_shahdadkot","lon":67.89,"lat":27.85,"zoom":10,"schools":194,"boys":10296,"girls":6856,"totalStudents":17152,"pointRadius":31}},{"schools_sijawal_junejo":{"title":"Sijawal Junejo","allSelected":0,"districtIndex":7,"districtSelected":0,"districtTalukasList":0,"districtTalukaTblList":0,"talukaDistrict":"Shahdadkot","taluka":true,"talukaIndex":6,"tableName":"schools_sijawal_junejo","lon":68.11,"lat":27.84,"zoom":10,"schools":173,"boys":7549,"girls":3648,"totalStudents":11197,"pointRadius":31}},{"schools_warrah":{"title":"Warrah","allSelected":0,"districtIndex":7,"districtSelected":0,"districtTalukasList":0,"districtTalukaTblList":0,"talukaDistrict":"Shahdadkot","taluka":true,"talukaIndex":7,"tableName":"schools_warrah","lon":67.79,"lat":27.44,"zoom":10,"schools":202,"boys":17890,"girls":12780,"totalStudents":30670,"pointRadius":31}},{"schools_sukkur_district":{"title":"Sukkur","allSelected":0,"districtSelected":true,"districtIndex":8,"districtTalukasList":["New Sukkur","Pano Aqil","Rohri","salehpat","Sukkur"],"districtTalukaTblList":["schools_new_sukkur","schools_pano_aqil","schools_rohri","schools_salehpat","schools_sukkur"],"talukaDistrict":"Sukkur","taluka":0,"talukaIndex":0,"tableName":"schools_sukkur_district","lon":68.84,"lat":27.68,"zoom":9,"schools":1277,"boys":74718,"girls":50448,"totalStudents":125166,"pointRadius":61}},{"schools_new_sukkur":{"title":"New Sukkur","allSelected":0,"districtIndex":8,"districtSelected":0,"districtTalukasList":0,"districtTalukaTblList":0,"talukaDistrict":"Sukkur","taluka":true,"talukaIndex":1,"tableName":"schools_new_sukkur","lon":68.83,"lat":27.71,"zoom":10,"schools":144,"boys":13868,"girls":10917,"totalStudents":24785,"pointRadius":31}},{"schools_pano_aqil":{"title":"Pano Aqil","allSelected":0,"districtIndex":8,"districtSelected":0,"districtTalukasList":0,"districtTalukaTblList":0,"talukaDistrict":"Sukkur","taluka":true,"talukaIndex":2,"tableName":"schools_pano_aqil","lon":69.13,"lat":27.8,"zoom":10,"schools":529,"boys":23062,"girls":15426,"totalStudents":38488,"pointRadius":31}},{"schools_rohri":{"title":"Rohri","allSelected":0,"districtIndex":8,"districtSelected":0,"districtTalukasList":0,"districtTalukaTblList":0,"talukaDistrict":"Sukkur","taluka":true,"talukaIndex":3,"tableName":"schools_rohri","lon":68.93,"lat":27.65,"zoom":10,"schools":374,"boys":22302,"girls":12989,"totalStudents":35291,"pointRadius":31}},{"schools_salehpat":{"title":"Salehpat","allSelected":0,"districtIndex":8,"districtSelected":0,"districtTalukasList":0,"districtTalukaTblList":0,"talukaDistrict":"Sukkur","taluka":true,"talukaIndex":4,"tableName":"schools_salehpat","lon":69.04,"lat":27.52,"zoom":10,"schools":166,"boys":6397,"girls":1967,"totalStudents":8364,"pointRadius":31}},{"schools_sukkur":{"title":"Sukkur","allSelected":0,"districtIndex":8,"districtSelected":0,"districtTalukasList":0,"districtTalukaTblList":0,"talukaDistrict":"Sukkur","taluka":true,"talukaIndex":5,"tableName":"schools_sukkur","lon":68.84,"lat":27.69,"zoom":10,"schools":64,"boys":9089,"girls":9149,"totalStudents":18238,"pointRadius":31}}]